[{"id":3444,"name":"Gelateria Da Bruno","address":"Via Mont\u00e0, 83","city":"Padova","contact":null,"notes":null,"slogan":"","description":"","master":"","phone":"","website":"","email":"","staff":"","opening_hours":"","specialities":"","services":"","lat":"45.4227496","lng":"11.854940899999974","province_id":15,"region_id":9,"active":1,"show_details":0,"priority":1,"user_id":1,"created_at":"2014-08-28T08:12:01+0000","updated_at":"2015-06-01T10:38:31+0000","gallery":[],"cover":false},{"id":3445,"name":"Gelateria Friso","address":"Via Cesarotti, 29","city":"Padova","contact":null,"notes":null,"slogan":"","description":"","master":"","phone":"","website":"","email":"","staff":"","opening_hours":"","specialities":"","services":"","lat":"45.4023412","lng":"11.882885999999985","province_id":15,"region_id":9,"active":1,"show_details":0,"priority":1,"user_id":1,"created_at":"2014-08-28T08:12:33+0000","updated_at":"2015-06-01T09:48:05+0000","gallery":[],"cover":false},{"id":5178,"name":"Pasticceria Le Sablon","address":"Via Guido Reni, 67","city":"Padova","contact":null,"notes":null,"slogan":"","description":"","master":"","phone":"","website":"","email":"","staff":"","opening_hours":"","specialities":"","services":"","lat":"45.4325467","lng":"11.890107599999965","province_id":15,"region_id":9,"active":1,"show_details":0,"priority":1,"user_id":1,"created_at":"2015-01-12T13:12:49+0000","updated_at":"2015-06-01T09:48:00+0000","gallery":[],"cover":false},{"id":3447,"name":"Tuttafrutta e cioccolato","address":"Via San Marco, 159","city":"Padova","contact":null,"notes":null,"slogan":"","description":"","master":"","phone":"","website":"","email":"","staff":"","opening_hours":"","specialities":"","services":"","lat":"45.4177076","lng":"11.92565049999996","province_id":15,"region_id":9,"active":1,"show_details":0,"priority":1,"user_id":1,"created_at":"2014-08-28T08:17:01+0000","updated_at":"2015-06-01T10:33:03+0000","gallery":[],"cover":false},{"id":5208,"name":" L'arte del gusto","address":"Via Roma, 48","city":"Campodarsego","contact":null,"notes":null,"slogan":"","description":"","master":"","phone":"","website":"","email":"","staff":"","opening_hours":"","specialities":"","services":"","lat":"45.545378","lng":"11.809923000000026","province_id":15,"region_id":9,"active":1,"show_details":0,"priority":0,"user_id":1,"created_at":"2015-04-10T13:00:58+0000","updated_at":"2015-06-01T10:32:23+0000","gallery":[],"cover":false},{"id":3448,"name":"Dolce Freddo","address":"Via Matteotti, 20","city":"Montagnana","contact":null,"notes":null,"slogan":"","description":"","master":"","phone":"","website":"","email":"","staff":"","opening_hours":"","specialities":"","services":"","lat":"45.2328509","lng":"11.465871900000025","province_id":15,"region_id":9,"active":1,"show_details":0,"priority":0,"user_id":1,"created_at":"2014-08-28T08:17:39+0000","updated_at":"2015-06-01T10:44:43+0000","gallery":[],"cover":false},{"id":3449,"name":"Dulcis - La bottega del gelato","address":"Piazza Vittorio Emanuele II, 23","city":"Montagnana","contact":null,"notes":null,"slogan":"","description":"","master":"","phone":"","website":"","email":"","staff":"","opening_hours":"","specialities":"","services":"","lat":"45.231715","lng":"11.46736199999998","province_id":15,"region_id":9,"active":1,"show_details":0,"priority":0,"user_id":1,"created_at":"2014-08-28T08:20:36+0000","updated_at":"2015-06-01T09:40:51+0000","gallery":[],"cover":false},{"id":5207,"name":"Gelateria Antica Porta","address":"Via Garibaldi, 55","city":"Cittadella","contact":null,"notes":null,"slogan":"","description":"","master":"","phone":"","website":"","email":"","staff":"","opening_hours":"","specialities":"","services":"","lat":"45.6469178","lng":"11.78394579999997","province_id":15,"region_id":9,"active":1,"show_details":0,"priority":0,"user_id":1,"created_at":"2015-04-10T12:45:58+0000","updated_at":"2015-06-01T10:54:48+0000","gallery":[],"cover":false},{"id":3451,"name":"Gelateria Antiche Tentazioni","address":"Via Roma, 17","city":"Selvazzano Dentro","contact":null,"notes":null,"slogan":"","description":"","master":"","phone":"","website":"","email":"","staff":"","opening_hours":"","specialities":"","services":"","lat":"45.3939539","lng":"11.780411500000014","province_id":15,"region_id":9,"active":1,"show_details":0,"priority":0,"user_id":1,"created_at":"2014-08-28T08:31:18+0000","updated_at":"2015-06-01T09:44:22+0000","gallery":[],"cover":false},{"id":3452,"name":"Gelateria Bijou","address":"Via Previtali, 50","city":"Abano Terme","contact":null,"notes":null,"slogan":"","description":"","master":"","phone":"","website":"","email":"","staff":"","opening_hours":"","specialities":"","services":"","lat":"45.3495877","lng":"11.775927799999977","province_id":15,"region_id":9,"active":1,"show_details":0,"priority":0,"user_id":1,"created_at":"2014-08-28T08:31:49+0000","updated_at":"2015-06-01T09:47:08+0000","gallery":[],"cover":false},{"id":3453,"name":"Gelateria delle Terme","address":"Via Monte Ricco, 12","city":"Abano Terme","contact":null,"notes":null,"slogan":"","description":"","master":"","phone":"","website":"","email":"","staff":"","opening_hours":"","specialities":"","services":"","lat":"45.3551795","lng":"11.774600400000054","province_id":15,"region_id":9,"active":1,"show_details":0,"priority":0,"user_id":1,"created_at":"2014-08-28T08:32:30+0000","updated_at":"2015-06-01T09:44:05+0000","gallery":[],"cover":false},{"id":3454,"name":"Gelateria Panciera","address":"Via Santuario, 23","city":"Abano Terme","contact":null,"notes":null,"slogan":"","description":"","master":"","phone":"","website":"","email":"","staff":"","opening_hours":"","specialities":"","services":"","lat":"45.3540934","lng":"11.764612800000009","province_id":15,"region_id":9,"active":1,"show_details":0,"priority":0,"user_id":1,"created_at":"2014-08-28T08:34:04+0000","updated_at":"2015-06-01T09:43:04+0000","gallery":[],"cover":false},{"id":3455,"name":"Gelateria Soleluna","address":"Via Euganea, 21","city":"Selvazzano Dentro","contact":null,"notes":null,"slogan":"","description":"","master":"","phone":"","website":"","email":"","staff":"","opening_hours":"","specialities":"","services":"","lat":"45.3900099","lng":"11.802304999999933","province_id":15,"region_id":9,"active":1,"show_details":0,"priority":0,"user_id":1,"created_at":"2014-08-28T08:35:03+0000","updated_at":"2015-06-01T10:37:42+0000","gallery":[],"cover":false},{"id":3456,"name":"Golosi di Natura","address":"Via Vittorio Emanuele, 22","city":"Gazzo","contact":null,"notes":null,"slogan":"","description":"","master":"","phone":"","website":"","email":"","staff":"","opening_hours":"","specialities":"","services":"","lat":"45.5806745","lng":"11.707655799999998","province_id":15,"region_id":9,"active":1,"show_details":0,"priority":0,"user_id":1,"created_at":"2014-08-28T08:35:43+0000","updated_at":"2015-06-01T10:35:39+0000","gallery":[],"cover":false},{"id":3458,"name":"Morbidi Piaceri","address":"Via Gaetano Rigotti, 15\/F","city":"Cadoneghe","contact":null,"notes":null,"slogan":"","description":"","master":"","phone":"","website":"","email":"","staff":"","opening_hours":"","specialities":"","services":"","lat":"45.439847","lng":"11.924562899999955","province_id":15,"region_id":9,"active":1,"show_details":0,"priority":0,"user_id":1,"created_at":"2014-08-28T08:38:40+0000","updated_at":"2015-06-01T10:44:04+0000","gallery":[],"cover":false},{"id":5145,"name":"Mungi&Bevi","address":"Via Valsugana, 195","city":"San Giorgio in Bosco","contact":null,"notes":null,"slogan":"","description":"","master":"","phone":"","website":"","email":"","staff":"","opening_hours":"","specialities":"","services":"","lat":"45.5852954","lng":"11.806387599999994","province_id":15,"region_id":9,"active":1,"show_details":0,"priority":0,"user_id":1,"created_at":"2014-12-20T15:57:46+0000","updated_at":"2015-06-01T09:53:14+0000","gallery":[],"cover":false},{"id":4923,"name":"Vaniglia","address":"Via Della Provvidenza, 1","city":"Rubano","contact":null,"notes":null,"slogan":"","description":"","master":"","phone":"","website":"","email":"","staff":"","opening_hours":"","specialities":"","services":"","lat":"45.417997","lng":"11.82454000000007","province_id":15,"region_id":9,"active":1,"show_details":0,"priority":0,"user_id":1,"created_at":"2014-11-28T10:09:52+0000","updated_at":"2015-06-01T09:42:04+0000","gallery":[],"cover":false}]	